[{"id": "3", "latitude": -27.769730499999998, "longitude": 134.09471150000002, "name": "www.parkrun.com.au", "parent_id": "1", "url": "https://www.parkrun.com.au"}, {"id": "14", "latitude": 49.860403, "longitude": -93.455948, "name": "www.parkrun.ca", "parent_id": "1", "url": "https://www.parkrun.ca"}, {"id": "23", "latitude": 56.2308765, "longitude": 10.539022, "name": "www.parkrun.dk", "parent_id": "1", "url": "https://www.parkrun.dk"}, {"id": "30", "latitude": 60.8363945, "longitude": 24.6489475, "name": "www.parkrun.fi", "parent_id": "1", "url": "https://www.parkrun.fi"}, {"id": "31", "latitude": 46.502721, "longitude": 2.8586355, "name": "www.parkrun.fr", "parent_id": "1", "url": "https://www.parkrun.fr"}, {"id": "32", "latitude": 50.6282725, "longitude": 10.18059, "name": "www.parkrun.com.de", "parent_id": "1", "url": "https://www.parkrun.com.de"}, {"id": "42", "latitude": 53.346055, "longitude": -8.0910015, "name": "www.parkrun.ie", "parent_id": "1", "url": "https://www.parkrun.ie"}, {"id": "44", "latitude": 41.6576265, "longitude": 12.882155000000001, "name": "www.parkrun.it", "parent_id": "1", "url": "https://www.parkrun.it"}, {"id": "46", "latitude": 34.058820499999996, "longitude": 135.679513, "name": "www.parkrun.jp", "parent_id": "1", "url": "https://www.parkrun.jp"}, {"id": "57", "latitude": 3.0612155000000003, "longitude": 101.715709, "name": "www.parkrun.my", "parent_id": "1", "url": "https://www.parkrun.my"}, {"id": "64", "latitude": 52.023272500000004, "longitude": 5.4154995, "name": "www.parkrun.co.nl", "parent_id": "1", "url": "https://www.parkrun.co.nl"}, {"id": "65", "latitude": -41.0695325, "longitude": 173.187344, "name": "www.parkrun.co.nz", "parent_id": "1", "url": "https://www.parkrun.co.nz"}, {"id": "67", "latitude": 60.892611, "longitude": 8.0503365, "name": "www.parkrun.no", "parent_id": "1", "url": "https://www.parkrun.no"}, {"id": "74", "latitude": 52.169940499999996, "longitude": 18.86985, "name": "www.parkrun.pl", "parent_id": "1", "url": "https://www.parkrun.pl"}, {"id": "79", "latitude": 53.317485000000005, "longitude": 79.82011750000001, "name": "www.parkrun.ru", "parent_id": "1", "url": "https://www.parkrun.ru"}, {"id": "82", "latitude": 1.3278415, "longitude": 103.841541, "name": "www.parkrun.sg", "parent_id": "1", "url": "https://www.parkrun.sg"}, {"id": "85", "latitude": -28.6041035, "longitude": 23.3774365, "name": "www.parkrun.co.za", "parent_id": "1", "url": "https://www.parkrun.co.za"}, {"id": "88", "latitude": 59.391087, "longitude": 15.0385425, "name": "www.parkrun.se", "parent_id": "1", "url": "https://www.parkrun.se"}, {"id": "97", "latitude": 54.672276, "longitude": -2.9478825, "name": "www.parkrun.org.uk", "parent_id": "1", "url": "https://www.parkrun.org.uk"}, {"id": "98", "latitude": 37.232986, "longitude": -96.9902125, "name": "www.parkrun.us", "parent_id": "1", "url": "https://www.parkrun.us"}]